[
    {
        "id": 1,
        "title": "Care for Paws (CFP)",
        "contact": [
            "01635817270",
            "01750578138"
        ],
        "location": "House no. 68/3C, Shwapno Express Lane, Zigatola Post Office Road, Dhanmondi.",
        "Division": "Dhaka",
        "District": "Dhaka",
        "City": "Dhanmondi",
        "image": ""
    },
    {
        "id": 2,
        "title": "Dr. Md. Luthfor Rahman",
        "position": "Veterinary Surgeon, Central Veterinary Hospital, Dhaka.",
        "contact": [
            "01552457085",
            "01731492093"
        ],
        "email": "luthfor75@gmail.com",
        "location": "Nikunja-2, Khilkhet, Dhaka.",
        "services": [
            "Regular Health Check up",
            "Vaccination",
            "Surgical Operation",
            "NOC",
            "Microchip"
        ],
        "Division": "Dhaka",
        "District": "Dhaka",
        "City": "Khilkhet",
        "image": ""
    },
    {
        "id": 3,
        "title": "PAW Life Care",
        "contact": "+8801909617994",
        "location": "1/12, Block-G, Lalmatia, Dhaka, Bangladesh",
        "hours": "9AM to 11AM and 4PM to 8PM",
        "Division": "Dhaka",
        "District": "Dhaka",
        "City": "Lalmatia",
        "image": ""
    },
    {
        "id": 4,
        "title": "Vet and Pet Care (Dr. K.B.M.Saiful Islam)",
        "contact": "01835666696",
        "location": "House# 68/10, Europa International School Lane, Zigatola Post Office Road, Dhanmondi, Dhaka, Bangladesh.",
        "Division": "Dhaka",
        "District": "Dhaka",
        "City": "Dhanmondi",
        "image": ""
    },
    {
        "id": 5,
        "title": "Dr. Kazi Mujibur Rahman",
        "position": "Chief vet, Central Veterinary Hospital, Dhaka",
        "contact": "01715016218",
        "location": "Kazi Alauddin Road, Gulistan, Dhaka, Bangladesh",
        "services": [
            "Regular Health Check up",
            "Vaccination",
            "Surgical Operation"
        ],
        "Division": "Dhaka",
        "District": "Dhaka",
        "City": "Gulistan",
        "image": ""
    },
    {
        "id": 6,
        "title": "Dr. Azmat Ali",
        "contact": [
            "01912-013615",
            "01715-078434"
        ],
        "location": "Gulshan Pet-Animal Clinic (A-Z Pet Animal Solution in Dhaka) 4-5 DCC Super Market, Gulshan-2, Dhaka-1212",
        "hours": "Call the vet before going",
        "services": [
            "Vaccination",
            "Surgical Operation"
        ],
        "Division": "Dhaka",
        "District": "Dhaka",
        "City": "Gulshan-2",
        "image": ""
    },
    {
        "id": 7,
        "title": "Dr. Siamak",
        "contact": [
            "01711561155"
        ],
        "location": "H- 56, R- 9/B, Sector: 5, Uttara.",
        "services": [
            "Regular Health Check up",
            "Vaccination"
        ],
        "Division": "Dhaka",
        "District": "Dhaka",
        "City": "Uttara",
        "image": ""
    },
    {
        "id": 8,
        "title": "Dr. Motahar Hossain",
        "position": "Enlisted vet of USA embassy",
        "contact": [
            "01711541070",
            "01971541070"
        ],
        "location": "Gulshan 2 Dcc Market, 2nd floor.",
        "hours": "10/11 to 2pm (call the vet before going)",
        "Division": "Dhaka",
        "District": "Dhaka",
        "City": "Gulshan-2",
        "image": ""
    },
    {
        "id": 9,
        "title": "Chittagong Veterinary and Animal Science University",
        "location": "Zakir Hossain Road, Khulshi. Ctg-4202",
        "contact": [
            "01711057533",
            "01736930901",
            "01192046813",
            "01711172139"
        ],
        "Division": "Chattogram",
        "District": "Chattogram",
        "City": "",
        "image": ""
    },
    {
        "id": 10,
        "title": "Dr. Mahbub",
        "location": "VS, District Vet. Hospital, Sylhet",
        "contact": "01711287533",
        "Division": "Sylhet",
        "District": "Sylhet",
        "City": "",
        "image": ""
    },
    {
        "id": 11,
        "title": "Sylhet pet clinic",
        "location": "House no-05 (First Floor), Road 24, Block D, Shahjalal Uposhahar, Sylhet",
        "contact": "01776214373",
        "email": "sylhetpetclinik@gmail.com",
        "Division": "Sylhet",
        "District": "Sylhet",
        "City": "",
        "image": ""
    },
    {
        "id": 12,
        "title": "Chittagong Veterinary and Animal Science University",
        "location": "Zakir Hossain Road, Khulshi, Chittagong-4202",
        "contact": [
            "031-659492",
            "88-031-659153",
            "88-031-659154",
            "88-031-659093"
        ],
        "Division": "Chattogram",
        "District": "Chattogram",
        "City": "",
        "image": ""
    },
    {
        "id": 13,
        "title": "Animal Care Bangladesh",
        "contact": [
            "01763672169",
            "01622444069"
        ],
        "Division": "Dhaka",
        "District": "Dhaka",
        "City": "Khilgaon",
        "image": ""
    },
    {
        "id": 14,
        "title": "Care for Paws (CFP)",
        "contact": [
            "01635817270",
            "01635817271",
            "01635817272"
        ],
        "location": "23/10, Banani 2no. Road, near Baitun-Nur Jamey Masjid",
        "Division": "Dhaka",
        "District": "Dhaka",
        "City": "Banani",
        "image": ""
    },
    {
        "id": 15,
        "title": "Dr. Motahar Hossain",
        "contact": [
            "01711541070",
            "01971541070"
        ],
        "location": "Gulshan 2 Dcc Market, 2nd floor",
        "hours": "10/11 to 2pm",
        "services": [
            "House calls"
        ],
        "Division": "Dhaka",
        "District": "Dhaka",
        "City": "Gulshan-2",
        "image": ""
    },
    {
        "id": 16,
        "title": "Dr.Siamak",
        "contact": [
            "8917249",
            "01711561155"
        ],
        "location": "H- 56, R- 9/B, Sector: 5, Uttara",
        "Division": "Dhaka",
        "District": "Dhaka",
        "City": "Uttara",
        "image": ""
    },
    {
        "id": 17,
        "title": "Upozilla Livestock Officer",
        "location": "Sylhet Sadar",
        "contact": "01711230811",
        "Division": "Sylhet",
        "District": "Sylhet",
        "City": "",
        "image": ""
    },
    {
        "id": 18,
        "title": "Dr.Azmat Ali and Dr. Chowdhury Sultana Sabrina",
        "location": "Gulshan Pet-Animal Clinic, A-Z Pet Animal Solution, 4-5 DCC Super Market, Gulshan-2, Dhaka-1212",
        "hours": "Call the vet before going",
        "contact": [
            "01912-013615",
            "01715-078434"
        ],
        "Division": "Dhaka",
        "District": "Dhaka",
        "City": "Gulshan-2",
        "image": ""
    },
    {
        "id": 19,
        "title": "Dr. Mohammad Mamunur Rashid",
        "position": "Veterinary Surgeon, DVM, MS in Theriogenology",
        "contact": "01725808534",
        "location": "Central Veterinary Hospital, 48, Kazi Alauddin Road, Dhaka-1000",
        "map_link": "https://goo.gl/maps/zmCpCY2wtkSZifVY7",
        "services": [
            "Pet animal Treatment",
            "Management",
            "Vaccination",
            "Surgical Procedure",
            "Ovario-hysterectomy",
            "Castration",
            "Docking",
            "Cesarean section",
            "Routine health checkup",
            "Emergency care"
        ],
        "Division": "Dhaka",
        "District": "Dhaka",
        "City": "Puran Dhaka",
        "image": ""
    },
    {
        "id": 20,
        "title": "Dr. Arifur Rabbi",
        "position": "Veterinary Surgeon, DVM, MS",
        "contact": "01785636036",
        "email": "veterinarybd@hotmail.com",
        "location": "The Pet Vet BD, TA 173/2 Lake view road, Godara ghat to Hatirjheel Road, Dhaka 1212",
        "map_link": "https://g.page/the-pet-vet-bd?share",
        "services": [
            "Pet Animal Disease Diagnosis & Treatment",
            "Pet Animal Vaccination",
            "Dog & Cat Vaccine",
            "Pet Animal Deworming",
            "Dog & Cat Routine Deworming",
            "Pet Animal Health Checkup",
            "Dog & Cat Health Checkup"
        ],
        "Division": "Dhaka",
        "District": "Dhaka",
        "City": "Badda",
        "image": ""
    },
    {
        "id": 21,
        "title": "Dr. Sagir Uddin Ahmed",
        "position": "Veterinary Surgeon, DVM, MS Vet Science, PhD",
        "contact": [
            "01912251312",
            "01752987436",
            "01706214759"
        ],
        "email": "bdvet.com@gmail.com",
        "location": "Dhanmondi Chamber/Clinic: House 3/2, Block D, Lalmatia Dhaka 1207, Bangladesh; Gulshan Chamber/Clinic: House # 21, Road # 6, Block # D, Niketon, Gulshan 1, Dhaka",
        "map_link": "https://g.page/VetDr-Sagir?share",
        "services": [
            "Preventative health care",
            "Diagnostic and medical care of sick pets",
            "Vaccination"
        ],
        "Division": "Dhaka",
        "District": "Dhaka",
        "City": "Lalmatia",
        "image": ""
    },
    {
        "id": 22,
        "title": "Dr. Md. Mahbubul Alam Bhuiyan",
        "position": "Veterinary Surgeon",
        "contact": "01711146012",
        "location": "Central Veterinary Hospital, Chamber Address: 67/2, North Bashaboo, Khilgaon, Dhaka.",
        "map_link": "https://goo.gl/maps/zmCpCY2wtkSZifVY7",
        "Division": "Dhaka",
        "District": "Dhaka",
        "City": "Bashabo",
        "image": ""
    },
    {
        "id": 23,
        "title": "Dr. Mohammad Shariful Haque",
        "position": "Veterinary Surgeon",
        "contact": [
            "0173046585"
        ],
        "location": "Elephant Road, Dhaka, Bangladesh",
        "services": [
            "Regular Health Check up",
            "Vaccination",
            "Surgical Operation",
            "NOC",
            "Microchip"
        ],
        "Division": "Dhaka",
        "District": "Dhaka",
        "City": "Elephant Road",
        "image": ""
    },
    {
        "id": 24,
        "title": "Dr.Azmat Ali and Dr. Chowdhury Sultana Sabrina",
        "location": "9, Eastern Shopping Complex, Pink City Xenovalley Model Town, 300 Feet Road, Khilkhet, Dhaka",
        "contact": [
            "01715078434",
            "01701666151",
            "01981890948"
        ],
        "Division": "Dhaka",
        "District": "Dhaka",
        "City": "Khilkhet",
        "image": ""
    },
    {
        "id": 25,
        "title": "Veterinary Clinic",
        "contact": "01715016218",
        "location": "House 792, Road 21, Block G, Dhaka 1229",
        "map_link": "https://goo.gl/maps/xQFsseu1Y672WVfq9",
        "Division": "Dhaka",
        "District": "Dhaka",
        "City": "Bashundhara R/A",
        "image": ""
    },
    {
        "id": 26,
        "title": "Central Veterinary Hospital",
        "contact": "01711187477",
        "location": "48 Kazi Alauddin Rd, Dhaka 1000",
        "map_link": "https://goo.gl/maps/zmCpCY2wtkSZifVY7",
        "Division": "Dhaka",
        "District": "Dhaka",
        "City": "Puran Dhaka",
        "image": ""
    },
    {
        "id": 27,
        "title": "Mr. Vet",
        "contact": "01723649754",
        "location": "28, Block-C, 10, Tajmahal Rd, Dhaka 1207",
        "map_link": "https://goo.gl/maps/T7AXvHj4G5w9Z7Ku6",
        "Division": "Dhaka",
        "District": "Dhaka",
        "City": "Dhanmondi",
        "image": ""
    },
    {
        "id": 28,
        "title": "Vet & Pet Care (VNPC)",
        "contact": "01674173844",
        "location": "1/17 Humayun Road, Rashida Villa, Humayun Rd, Dhaka 1207",
        "map_link": "https://goo.gl/maps/AzeVJ6uwyWXff2xs6",
        "Division": "Dhaka",
        "District": "Dhaka",
        "City": "Dhanmondi",
        "image": ""
    },
    {
        "id": 29,
        "title": "Pet Doctor Robi",
        "contact": "01723649754",
        "location": "10, 28 Block- C Tajmahal Rd, Dhaka",
        "map_link": "https://goo.gl/maps/epBDjdX1R8v1Pm1i6",
        "Division": "Dhaka",
        "District": "Dhaka",
        "City": "Dhanmondi",
        "image": ""
    },
    {
        "id": 30,
        "title": "Care & Cure Veterinary Clinic",
        "contact": "01551807384",
        "location": "28 Rd No. 7, Dhaka 1205",
        "map_link": "https://g.page/care-cure-veterinary-clinic?share",
        "Division": "Dhaka",
        "District": "Dhaka",
        "City": "Dhanmondi",
        "image": ""
    },
    {
        "id": 31,
        "title": "Vet And Pet Care",
        "contact": "01701022274",
        "location": "Middle Badda(Baluchar), Ground Floor, Ta- 169 Badda High School Road, Gulshan 1, Dhaka 1212 Dhaka, 1212",
        "map_link": "https://goo.gl/maps/AzeVJ6uwyWXff2xs6",
        "Division": "Dhaka",
        "District": "Dhaka",
        "City": "Badda",
        "image": ""
    },
    {
        "id": 32,
        "title": "Dr. Tayabur’s Pet Care",
        "contact": "01818417804",
        "location": "House 20 Road No 1A, Dhaka 1230",
        "map_link": "https://g.page/Pet-vet-care-uttara?share",
        "Division": "Dhaka",
        "District": "Dhaka",
        "City": "Uttara",
        "image": ""
    },
    {
        "id": 33,
        "title": "Evergreen Pet Care",
        "contact": "01716535822",
        "location": "H#53, R#12, Sec#13, Dhaka 1230",
        "map_link": "https://goo.gl/maps/tPUWBHoPmEWQBrUM6",
        "Division": "Dhaka",
        "District": "Dhaka",
        "City": "Uttara",
        "image": ""
    },
    {
        "id": 34,
        "title": "Veterinary Specialized Hospital & Diagnostic Center",
        "contact": "01305843505",
        "location": "428/1, Garden View Road, Mirpur-1, Dhaka-1216",
        "map_link": "https://goo.gl/maps/iF9Gjst6EMTp9NAL8",
        "Division": "Dhaka",
        "District": "Dhaka",
        "City": "Mirpur",
        "image": ""
    },
    {
        "id": 35,
        "title": "LD Veterinary Hospital",
        "contact": "01733339597",
        "location": "15 Sonargaon Janapath, Dhaka 1230",
        "map_link": "https://goo.gl/maps/hRxBxGYD1wd8qAjp8",
        "Division": "Dhaka",
        "District": "Dhaka",
        "City": "Uttara",
        "image": ""
    },
    {
        "id": 36,
        "title": "Gulshan Pet Clinic",
        "contact": "01715078434",
        "location": "4,5, DCC Super Market, Gulshan-2, Dhaka 1212",
        "Division": "Dhaka",
        "District": "Dhaka",
        "City": "Gulshan-2",
        "image": ""
    },
    {
        "id": 37,
        "title": "Vet and Pet care",
        "contact": "01835666696",
        "location": "House# 68/10, Europa International School Lane, Zigatola Post Office Road, Dhanmondi, Dhaka, Bangladesh",
        "Division": "Dhaka",
        "District": "Dhaka",
        "City": "Dhanmondi",
        "image": ""
    },
    {
        "id": 38,
        "title": "Biswas Veterinary Clinic",
        "contact": "01322581020",
        "location": "TA 131, 109 Gulshan Badda Link Rd, Dhaka 1212",
        "map_link": "https://goo.gl/maps/9Mzmb6z8Dnf9YmEn9",
        "Division": "Dhaka",
        "District": "Dhaka",
        "City": "Badda",
        "image": ""
    },
    {
        "id": 39,
        "title": "Companion Care Clinic",
        "contact": "01774398004",
        "location": "GP,E-124,School road, Wireless gate, Dhaka 1212",
        "map_link": "https://goo.gl/maps/jnAydYkXZv3AxJPYA",
        "Division": "Dhaka",
        "District": "Dhaka",
        "City": "Mohakhali",
        "image": ""
    },
    {
        "id": 40,
        "title": "AKS Animal Care Centre",
        "contact": "01770476749",
        "location": "13/1 Road No. 12, Dhaka 1212",
        "map_link": "https://goo.gl/maps/ZKcLmbqy4BK93ise9",
        "Division": "Dhaka",
        "District": "Dhaka",
        "City": "Baridhara",
        "image": ""
    },
    {
        "id": 41,
        "title": "Mirpur Pet Animal Clinic",
        "contact": "01320823299",
        "location": "House-04 (Ground Floor), Road-01, Mirpur 12, Dhaka",
        "map_link": "https://g.page/mirpur-pet-animal-clinic?share",
        "Division": "Dhaka",
        "District": "Dhaka",
        "City": "Mirpur",
        "image": ""
    },
    {
        "id": 42,
        "title": "Pet Care",
        "contact": "01819263621",
        "location": "S Paikpara Rd, Dhaka",
        "map_link": "https://goo.gl/maps/4y9TfNqBSs4Ka1B67",
        "Division": "Dhaka",
        "District": "Dhaka",
        "City": "Mirpur",
        "image": ""
    },
    {
        "id": 43,
        "title": "Vet Abdullah Mujahid",
        "contact": "01715728760",
        "location": "68, Harirampur, Golartek Mosque Rd, Dhaka 1216",
        "map_link": "https://goo.gl/maps/Rtp2deSehvvNXpJE9",
        "Division": "Dhaka",
        "District": "Dhaka",
        "City": "Mirpur",
        "image": ""
    },
    {
        "id": 44,
        "title": "Dr. Imran Pet Care Centre",
        "contact": "01849583864",
        "location": "Ga-95 Gulshan Badda Link Rd, Dhaka 1212",
        "map_link": "https://goo.gl/maps/Eg3ShUJL91c4Huxv6",
        "Division": "Dhaka",
        "District": "Dhaka",
        "City": "Badda",
        "image": ""
    },
    {
        "id": 45,
        "title": "SP Vet Care Limited",
        "contact": "023429830440",
        "location": "382, H/3 E Nakhalpara Rd, Dhaka 1215",
        "map_link": "https://goo.gl/maps/iW2yZdjhSzLBwoYu6",
        "Division": "Dhaka",
        "District": "Dhaka",
        "City": "Mohakhali",
        "image": ""
    },
    {
        "id": 46,
        "title": "Dr. Sharbaris Pet Care",
        "contact": "01722926032",
        "location": "496 Lane 9, Dhaka",
        "map_link": "https://goo.gl/maps/jb7Ly2MhHhrP4aA49",
        "Division": "Dhaka",
        "District": "Dhaka",
        "City": "Baridhara",
        "image": ""
    },
    {
        "id": 47,
        "title": "AR Veterinary Clinic",
        "location": "KA-54/1, Lichu Bagan, Joarshahara, Shewra Bazar, Flat-5B, Baridhara, Dhaka, Bangladesh",
        "contact": "01781-173876",
        "Division": "Dhaka",
        "District": "Dhaka",
        "City": "Baridhara",
        "image": ""
    },
    {
        "id": 48,
        "title": "Veterinary Information Hub",
        "location": "House No: 22, Banani 2, Dhaka, Bangladesh",
        "contact": "01911-101309",
        "website": "vetshub.info",
        "hours": "Always Open",
        "Division": "Dhaka",
        "District": "Dhaka",
        "City": "Banani",
        "image": ""
    },
    {
        "id": 49,
        "title": "Veterinary Health Care Clinic Rangpur",
        "email": "vhccrangpur@gmail.com",
        "website": "vhccrangpur.com",
        "hours": "9AM-8PM",
        "location": "G.L.Roy Road (Beside Angur Mia New Bridge), Khasbag, Sathmatha, Rangpur, Bangladesh",
        "Division": "Rangpur",
        "District": "Rangpur",
        "City": "",
        "image": ""
    },
    {
        "id": 50,
        "title": "Dr. Arifur Rabbi",
        "location": "Ta 173/2 Lake view road, Godara ghat to Hatirjheel Road, Dhaka 1212",
        "hours": "7.30PM to 10.00PM",
        "contact": "01785-636036",
        "email": "veterinarybd@hotmail.com",
        "website": "https://thepetvetbd.business.site/",
        "Division": "Dhaka",
        "District": "Dhaka",
        "City": "Badda",
        "image": ""
    },
    {
        "id": 51,
        "title": "Care & Cure Veterinary Clinic, Khilgaon",
        "location": "423/C Shahid Baki Road (Near Jhurpukur Play Ground), Khilgaon, Bangladesh",
        "contact": "01511-807384",
        "website": "careandcurevetbd.com",
        "Division": "Dhaka",
        "District": "Dhaka",
        "City": "Khilgaon",
        "image": ""
    },
    {
        "id": 52,
        "title": "Gulshan Pet Clinic",
        "contact": "01715078434",
        "location": "4,5, DCC Super Market, Gulshan-2, Dhaka 1212",
        "Division": "Dhaka",
        "District": "Dhaka",
        "City": "Gulshan-2",
        "image": ""
    },
    {
        "id": 53,
        "title": "Mymensing Iron Hide Vet",
        "contact": "01774477688",
        "location": "Mymensingh Vet Hospital",
        "email": "",
        "hours": "",
        "Division": "Mymensingh",
        "District": "Mymensingh",
        "City": "",
        "image": ""
    },
    {
        "id": 54,
        "title": "Bangladesh Veterinary Council",
        "location": "48, Kazi Alauddin road, 1000 Dhaka, Dhaka Division, Bangladesh",
        "website": "http://www.bvc.gov.bd/",
        "Division": "Dhaka",
        "District": "Dhaka",
        "City": "Dhanmondi",
        "image": ""
    },
    {
        "id": 55,
        "title": "Elite Pet Care",
        "contact": "01818-417804",
        "location": "House-72, Road 11, Sector 14, Uttara, Dhaka, Bangladesh",
        "email": "dr.tayabur@gmail.com",
        "hours": "Always open",
        "website": "trepup.com/drtayaburspetcare",
        "Division": "Dhaka",
        "District": "Dhaka",
        "City": "Uttara",
        "image": ""
    },
    {
        "id": 56,
        "title": "Faculty of Animal Science and Veterinary Medicine, SAU",
        "location": "Sher-e-Bangla Agricultural University (SAU), Sher-e-Bangla Nagar, Dhaka, Bangladesh",
        "website": "sau.edu.bd",
        "hours": "Always open",
        "Division": "Dhaka",
        "District": "Dhaka",
        "City": "Mirpur",
        "image": ""
    },
    {
        "id": 57,
        "title": "Veterinary Teaching Hospital, Bangladesh Agricultural University",
        "location": "BAU Campus Road, Mymensingh, Bangladesh",
        "contact": "01724-833732",
        "website": "vth.bau.edu.bd",
        "hours": "9AM-2PM",
        "Division": "Mymensingh",
        "District": "Mymensingh",
        "City": "",
        "image": ""
    },
    {
        "id": 58,
        "title": "Model Livestock Institute and Veterinary Hospital Dhaka",
        "location": "Model Livestock Institute Dhaka, Banasree-Staff Quarter road, Amulia Model Town, Dhaka, Bangladesh",
        "contact": "01533-380720",
        "email": "mlid.livestock.edu@gmail.com",
        "website": "vetsheba.com",
        "hours": "Always open",
        "Division": "Dhaka",
        "District": "Dhaka",
        "City": "Banasree",
        "image": ""
    },
    {
        "id": 59,
        "title": "LD Veterinary Hospital & Day Care Limited",
        "website": "ldveterinaryhos.com",
        "location": "House #15, Sonargaon Janopath, Sector-07, Uttara, Dhaka-1230, Dhaka, Bangladesh",
        "hours": "8AM-7PM",
        "Division": "Dhaka",
        "District": "Dhaka",
        "City": "Uttara",
        "image": ""
    },
    {
        "id": 60,
        "title": "Sourov veterinary",
        "location": "Hamirkutsha Bazar, Bagmara, Rajshahi, Bangladesh",
        "email": "rashourovahmed2@gmail.com",
        "contact": "01740-073019",
        "hours": "Always open",
        "Division": "Rajshahi",
        "District": "Rajshahi",
        "City": "",
        "image": ""
    },
    {
        "id": 61,
        "title": "Veterinary Doctor's Home",
        "location": "Eidulpur, Jaigirhut, Mithapukur, Rangpur, Bangladesh",
        "contact": "01741-662213",
        "Division": "Rangpur",
        "District": "Rangpur",
        "City": "",
        "image": ""
    },
    {
        "id": 62,
        "title": "Veterinary World",
        "location": "Dhaka, Gazipur, Bangladesh",
        "email": "mominilislam.v.m@gmail.com",
        "contact": "01824-295542",
        "hours": "Always open",
        "Division": "Dhaka",
        "District": "Dhaka",
        "City": "Gazipur",
        "image": ""
    },
    {
        "id": 63,
        "title": "Veterinary Doctor",
        "location": "Rangpur 5441, Rangpur, Bangladesh",
        "contact": "01742-685103",
        "email": "dr.sadikuzzamansagor@gmail.com",
        "hours": "Always open",
        "Division": "Rangpur",
        "District": "Rangpur",
        "City": "",
        "image": ""
    },
    {
        "id": 64,
        "title": "TnT VetCare",
        "contact": "01711-781052",
        "location": "10 Tala market (Estern Banbithi Shopping Complex) Shop # G-23, Ground Floor, PS: Khilgaon), South Banasree, Dhaka, Bangladesh",
        "email": "munirvet@gmail.com",
        "hours": "",
        "website": "tntvetcare.com",
        "Division": "Dhaka",
        "District": "Dhaka",
        "City": "Banasree",
        "image": ""
    },
    {
        "id": 65,
        "id": 170,
        "title": "Novel Pet & Vet Clinic",
        "contact": "01951-002185",
        "location": "House No 19, Lift-3, Road-8, ShekerTek, Mohammadpur, Dhaka, Bangladesh",
        "email": "shahjahan.vet@gmail.com",
        "hours": "Always open",
        "Division": "Dhaka",
        "District": "Dhaka",
        "City": "Mohammadpur",
        "image": ""
    },
    {
        "id": 66,
        "title": "Apex Veterinary",
        "location": "Mujib Chattar, Jhenida, Bangladesh",
        "contact": "01870-492525",
        "email": "vet.mhasan@gmail.com",
        "hours": "Always open",
        "Division": "Khulna",
        "District": "Khulna",
        "City": "",
        "image": ""
    },
    {
        "id": 67,
        "title": "Mymensingh Veterinary And Medical Technology Institute",
        "location": "Kewatkhali WAPDA Office, 18 Kewatkhali Power House Rd, Mymensingh 2201, Mymensingh, Bangladesh",
        "contact": "01979-166307",
        "email": "mymensinghveterinary@gmail.com",
        "website": "vymaps.com/BD/Mymensingh-Veterinary-And-Medical-Technology-Institute-2167908886834848",
        "hours": "Always open",
        "Division": "Mymensingh",
        "District": "Mymensingh",
        "City": "",
        "image": ""
    },
    {
        "id": 68,
        "title": "Institute of Veterinary Health Technology",
        "location": "Dr Jahirakand, Uttara, Dhaka, Amborkhana, Sylhet, Bangladesh",
        "contact": "01711-921416",
        "website": "iftibd.com",
        "hours": "Always open",
        "Division": "Dhaka",
        "District": "Dhaka",
        "City": "Uttara",
        "image": ""
    },
    {
        "id": 69,
        "title": "Veterinary Medical Science & Technology Institute, Sirajganj",
        "location": "Sirajganj Road, Goalchattar, Hatikumrul, Ullapara, Sirajganj, Bangladesh",
        "contact": "01713-897804",
        "email": "vmsti2016@gmail.com",
        "website": "vetymedgroup.com",
        "hours": "Open now",
        "Division": "Rajshahi",
        "District": "Rajshahi",
        "City": "",
        "image": ""
    },
    {
        "id": 70,
        "title": "MR Veterinary Clinic (mrvc)",
        "location": "126/6 Patwary Gali, East Bashabo Dhaka 1214, Dhaka, Bangladesh",
        "contact": "01521-489206",
        "email": "mrvcbgd@gmail.com",
        "Division": "Dhaka",
        "District": "Dhaka",
        "City": "Bashabo",
        "image": ""
    },
    {
        "id": 71,
        "title": "Sirajganj Govt Veterinary College",
        "contact": "01771-279393",
        "Division": "Rajshahi",
        "District": "Rajshahi",
        "City": "",
        "image": ""
    },
    {
        "id": 72,
        "title": "Dr. Imran's Veterinary Care",
        "location": "C&B Road, in front of Real Eye Hospital, next to Tanmay Community Center, Barisal Sadar, Barisal, Barisal, Bangladesh",
        "contact": "01746-841255",
        "hours": "Open now",
        "Division": "Barisal",
        "District": "Barisal",
        "City": "",
        "image": ""
    },
    {
        "id": 73,
        "title": "Veterinary Service-0.6",
        "location": "Sunamganj, Bangladesh",
        "contact": "01935-852391",
        "email": "suhanarnob143@gmail.com",
        "hours": "Always open",
        "Division": "Sylhet",
        "District": "Sylhet",
        "City": "",
        "image": ""
    },
    {
        "id": 74,
        "title": "Entity Veterinary Hospital",
        "location": "Allaha'r Daan, 121 Nawab Sirajuddoula Road, opposite to Chandanpura New Access Road, Chawkbazar, Chittagong, Bangladesh",
        "contact": "01521-486316",
        "email": "entityVH29421@gmail.com",
        "website": "sites.google.com/view/entityveterinaryhospital",
        "Division": "Chattogram",
        "District": "Chattogram",
        "City": "",
        "image": ""
    },
    {
        "id": 75,
        "title": "Veterinary Teaching Hospital Bsmrau",
        "location": "Bangabandhu Sheikh Mujibur Rahman Agricultural University, Dakshin Salna, Dhaka Division, Bangladesh",
        "Division": "Dhaka",
        "District": "Dhaka",
        "City": "Shahbag",
        "image": ""
    },
    {
        "id": 76,
        "title": "Doctor's Agro Vet Ltd.",
        "contact": "",
        "location": "Nurjehan Tower (5th Floor), 2, Link Road, Banglamotor, Dhaka, Bangladesh",
        "email": "info@doctorsagrovetltd.com",
        "hours": "Open now",
        "website": "doctorsagrovet.com",
        "Division": "Dhaka",
        "District": "Dhaka",
        "City": "Banglamotor",
        "image": ""
    },
    {
        "id": 77,
        "title": "Chowdhury Drug House-Veterinary",
        "location": "Chowdhury Drug House-Vet, Haji M.A. Gafur Square Market Demra, Dhaka, Demra, Bangladesh",
        "contact": "01794-799599",
        "email": "chowdrugvet@gmail.com",
        "website": "pettostorebd.com",
        "hours": "Always open",
        "Division": "Dhaka",
        "District": "Dhaka",
        "City": "Demra",
        "image": ""
    },
    {
        "id": 78,
        "title": "PET CARE",
        "location": "EKHWAN, 45/A, North Dhanmondi, Kalabagan, Green Road, Dhaka, Bangladesh",
        "contact": "01819-263621",
        "email": "doghealthcare@yahoo.com",
        "website": "petcareclinic-bd.com",
        "Division": "Dhaka",
        "District": "Dhaka",
        "City": "Dhanmondi",
        "image": ""
    },
    {
        "id": 79,
        "title": "Care & Cure Veterinary Clinic",
        "location": "House 28, Road 7, Dhanmondi, Dhaka, Bangladesh",
        "contact": "01551-807384",
        "email": "carencurevetclinic2020@gmail.com",
        "hours": "Open now",
        "Division": "Dhaka",
        "District": "Dhaka",
        "City": "Dhanmondi",
        "image": ""
    },
    {
        "id": 80,
        "title": "PAW Life Care, Mirpur",
        "location": "80 Commercial Plot, Block- A, Zoo Road, Mirpur, Dhaka-1216, Dhaka, Bangladesh",
        "contact": "01310-336835",
        "email": "pawfoundation.bd@gmail.com",
        "hours": "Open now",
        "Division": "Dhaka",
        "District": "Dhaka",
        "City": "Mirpur",
        "image": ""
    },
    {
        "id": 81,
        "title": "Elite Pet Care",
        "location": "House-72, Road 11, Sector 14, Uttara, Dhaka, Bangladesh",
        "contact": "01818-417804",
        "email": "dr.tayabur@gmail.com",
        "website": "trepup.com/drtayaburspetcare",
        "hours": "Always open",
        "Division": "Dhaka",
        "District": "Dhaka",
        "City": "Uttara",
        "image": ""
    },
    {
        "id": 82,
        "title": "PAW Life Care, Lalmatia",
        "location": "1/2, Block- G, Lalmatia, Dhaka, Bangladesh",
        "contact": "01329-666437",
        "email": "pawlifecare@gmail.com",
        "website": "pawfoundationbd.org",
        "hours": "Open now",
        "Division": "Dhaka",
        "District": "Dhaka",
        "City": "Lalmatia",
        "image": ""
    },
    {
        "id": 83,
        "title": "Mr. Vet",
        "contact": "01723-649754",
        "location": "5/15, Block- C, Tajmahal Road (West Side Of Dhaka Residential Model College), Mohammadpur, Dhaka- 1207, Dhaka, Bangladesh",
        "email": "mars.rabi0201@gmail.com",
        "hours": "Always open",
        "website": "petfoodgallery.com",
        "Division": "Dhaka",
        "District": "Dhaka",
        "City": "Dhanmondi",
        "image": ""
    },
    {
        "id": 84,
        "title": "Dr MM Hossain's Pet Clinic",
        "location": "Tomoz Pet Care; 25/20, Block-C, Tajmahal Road, Mohammadpur, Dhaka, Bangladesh",
        "contact": "01950-460626",
        "email": "mmhossaindvmbau@gmail.com",
        "Division": "Dhaka",
        "District": "Dhaka",
        "City": "Dhanmondi",
        "image": ""
    },
    {
        "id": 85,
        "title": "Pet Care Zone (Pet Clinic)",
        "location": "House 3, Road 9, Block D, Pakhir Bazaar, Mirpur 1, Dhaka 1216, Dhaka, Bangladesh",
        "contact": "01316-217068",
        "hours": "Always open",
        "Division": "Dhaka",
        "District": "Dhaka",
        "City": "Mirpur",
        "image": ""
    },
    {
        "id": 86,
        "title": "PAW Life Care, Mirpur",
        "contact": "01310-336835",
        "location": "80 Commercial Plot, Block- A, Zoo Road, Mirpur, Dhaka-1216, Dhaka, Bangladesh",
        "email": "pawfoundation.bd@gmail.com",
        "hours": "Open now",
        "Division": "Dhaka",
        "District": "Dhaka",
        "City": "Mirpur",
        "image": ""
    },
    {
        "id": 87,
        "title": "Pet and Bird Care",
        "location": "House 13/14, Lane# 1, Block# A, Section# 06, Mirpur, Dhaka 1216",
        "contact": "01701-073107",
        "email": "petandbirdcare@gmail.com",
        "website": "petandbirdcare.com",
        "hours": "Always open",
        "Division": "Dhaka",
        "District": "Dhaka",
        "City": "Mirpur",
        "image": ""
    },
    {
        "id": 88,
        "title": "AR Veterinary Clinic",
        "contact": "01781-173876",
        "location": "KA-54/1, Lichu Bagan, Joarshahara, Shewra Bazar, Flat-5B, Baridhara, Dhaka, Bangladesh",
        "email": "",
        "hours": "",
        "Division": "Dhaka",
        "District": "Dhaka",
        "City": "Baridhara",
        "image": ""
    },
    {
        "id": 89,
        "title": "Veterinary Specialized Hospital & Diagnostic Center",
        "location": "House 47 (2nd Floor), Road 2, Sector 5, Uttara, Dhaka, Dhaka, Bangladesh",
        "contact": "01305-843505",
        "email": "vethosp20@gmail.com",
        "Division": "Dhaka",
        "District": "Dhaka",
        "City": "Uttara",
        "image": ""
    },
    {
        "id": 90,
        "title": "Veterinary Surgery Unit, CVASU",
        "contact": "",
        "location": "Zakir Hossain Road, Khulshi, Chittagong, Bangladesh",
        "email": "",
        "hours": "Always Open",
        "Division": "Chattogram",
        "District": "Chattogram",
        "City": "",
        "image": ""
    },
    {
        "id": 91,
        "title": "AniMedCare",
        "location": "Near Natun Bazar Bus Stand, Floor 01, House 03, Road 08, Block J, Baridhara, Dhaka 1212, Dhaka, Bangladesh",
        "contact": "01894-947411",
        "email": "info@animedcare.com",
        "Division": "Dhaka",
        "District": "Dhaka",
        "City": "Baridhara",
        "image": ""
    },
    {
        "id": 92,
        "title": "Vet. Anisur Rahaman",
        "location": "GP E 124, School Road, Wireless Gate, Mohakhali, Dhaka, Bangladesh",
        "contact": "01774-398004",
        "Division": "Dhaka",
        "District": "Dhaka",
        "City": "Mohakhali",
        "image": ""
    },
    {
        "id": 93,
        "title": "Animal Health Care Center",
        "location": "House 13, Line 1, Block C, Mirpur 13, Dhaka, Bangladesh",
        "contact": "01318-862297",
        "email": "katabononline@gmail.com",
        "website": "katabononline.com",
        "hours": "Always open",
        "Division": "Dhaka",
        "District": "Dhaka",
        "City": "Mirpur",
        "image": ""
    },
    {
        "id": 94,
        "title": "Faculty of Animal Science and Veterinary Medicine, SAU",
        "location": "Sher-e-Bangla Agricultural University (SAU), Sher-e-Bangla Nagar, Dhaka, Bangladesh",
        "website": "sau.edu.bd",
        "hours": "Always open",
        "Division": "Dhaka",
        "District": "Dhaka",
        "City": "Mirpur",
        "image": ""
    },
    {
        "id": 95,
        "title": "Dr. Imran Pet Care",
        "location": "134A, Boishakhi Sarani, Gulshan-Badda Link Road, Gulshan-01, Dhaka-1212, 134A, Boishakhi Sarani, Gulshan-Badda Link Road, Dhaka-1212, Dhaka, Bangladesh",
        "contact": "01849-583864",
        "email": "alimrsan@gmail.com",
        "hours": "Open now",
        "Division": "Dhaka",
        "District": "Dhaka",
        "City": "Badda",
        "image": ""
    },
    {
        "id": 96,
        "title": "Veterinary Specialized Hospital & Diagnostic Center",
        "contact": "01305-843505",
        "location": "House 47 (2nd Floor), Road 2, Sector 5, Uttara, Dhaka, Dhaka, Bangladesh",
        "email": "vethosp20@gmail.com",
        "hours": "",
        "Division": "Dhaka",
        "District": "Dhaka",
        "City": "Uttara",
        "image": ""
    },
    {
        "id": 97,
        "title": "LD Veterinary Hospital",
        "contact": "01733339597",
        "location": "15 Sonargaon Janapath, Dhaka 1230",
        "map_link": "https://goo.gl/maps/hRxBxGYD1wd8qAjp8",
        "Division": "Dhaka",
        "District": "Dhaka",
        "City": "Uttara",
        "image": ""
    },
    {
        "id": 98,
        "title": "Dr. Sagir Uddin Ahmed",
        "location": "Dhanmondi Chamber: House 3/2, Block D, Lalmatia Dhaka 1207, Bangladesh; Gulshan Chamber: House # 21, Road # 6, Block # D, Niketon, Gulshan 1, Dhaka",
        "hours": "8 am to 9 pm (7 Days a week)",
        "contact": [
            "+8801912251312",
            "01752987436",
            "01706214759"
        ],
        "email": "bdvet.com@gmail.com",
        "Division": "Dhaka",
        "District": "Dhaka",
        "City": "Lalmatia",
        "image": ""
    },
    {
        "id": 99,
        "title": "Dr. Md. Mahbubul Alam Bhuiyan",
        "registration_number": "Reg. No-1126",
        "location": "48 Kazi Allauddin Road, Dhaka 1000",
        "contact": "01711-146012",
        "Division": "Dhaka",
        "District": "Dhaka",
        "City": "Bashabo",
        "image": ""
    },
    {
        "id": 100,
        "title": "Dr. Siamak Shamsi Bahar",
        "contact": [
            "8917249",
            "01711561155"
        ],
        "location": "H-56, R-9/B, Sector: 5, Uttara",
        "Division": "Dhaka",
        "District": "Dhaka",
        "City": "Uttara",
        "image": ""
    },
    {
        "id": 101,
        "title": "Dr. Md. Luthfor Rahman",
        "contact": [
            "01552457085",
            "01731492093"
        ],
        "location": "Nikunja-2, Khilkhet, Dhaka",
        "Division": "Dhaka",
        "District": "Dhaka",
        "City": "Mirpur",
        "image": ""
    },
    {
        "id": 102,
        "title": "Dr. Azmat Ali",
        "contact": [
            "9883486",
            "01912-013615",
            "01715-078434"
        ],
        "location": "Gulshan Pet-Animal Clinic, 4-5 DCC Super Market, Gulshan-2, Dhaka-1212",
        "Division": "Dhaka",
        "District": "Dhaka",
        "City": "Gulshan-2",
        "image": ""
    },
    {
        "id": 103,
        "title": "Care & Cure Veterinary Clinic",
        "contact": "01551-807384",
        "location": "House 28, Road 7, Dhanmondi, Dhaka, Bangladesh",
        "email": "carencurevetclinic2020@gmail.com",
        "hours": "Open 11AM to 8PM",
        "Division": "Dhaka",
        "District": "Dhaka",
        "City": "Dhanmondi",
        "image": ""
    },
    {
        "id": 104,
        "title": "Dr. Mohammad Shariful Haque",
        "contact": [
            "8619706",
            "0173046585"
        ],
        "location": "Elephant Road",
        "Division": "Dhaka",
        "District": "Dhaka",
        "City": "Elephant Road",
        "image": ""
    },
    {
        "id": 105,
        "title": "Veterinary Doctor",
        "contact": [
            "01552-457085"
        ],
        "location": "H#49, R#13, Nikunja-2, Khilkhet, Dhaka-1229, Dhaka, Bangladesh",
        "email": "luthfor75@gmail.com",
        "hours": "Open 10AM – 10PM",
        "Division": "Dhaka",
        "District": "Dhaka",
        "City": "Khilkhet",
        "image": ""
    },
    {
        "id": 106,
        "title": "Obhoyaronno - Bangladesh Animal Welfare Foundation",
        "contact": "+8801718643497",
        "location": "Mohakhali DNCC Market, Dhaka, Bangladesh",
        "Division": "Dhaka",
        "District": "Dhaka",
        "City": "Mohakhali",
        "image": ""
    },
    {
        "id": 107,
        "title": "PAW Life Care",
        "contact": "+8801909617994",
        "location": "1/12, Block-G, Lalmatia, Dhaka, Bangladesh",
        "hours": [
            "9AM to 11AM",
            "4PM to 8PM"
        ],
        "Division": "Dhaka",
        "District": "Dhaka",
        "City": "Lalmatia",
        "image": ""
    },
    {
        "id": 108,
        "title": "Vet and Pet care",
        "contact": "01835666696",
        "location": "House# 68/10, Europa International School Lane, Zigatola Post Office Road, Dhanmondi, Dhaka, Bangladesh",
        "Division": "Dhaka",
        "District": "Dhaka",
        "City": "Dhanmondi",
        "image": ""
    },
    {
        "id": 109,
        "title": "Dr.Azmat Ali and Dr. Chowdhury Sultana Sabrina",
        "location": "9, Eastern Shopping Complex, Pink City Xenovalley Model Town, 300 Feet Road, Khilkhet, Dhaka",
        "contact": [
            "01715078434",
            "01701666151",
            "01981890948"
        ],
        "Division": "Dhaka",
        "District": "Dhaka",
        "City": "Khilkhet",
        "image": ""
    },
    {
        "id": 110,
        "title": "Dr.Siamak",
        "contact": [
            "8917249",
            "01711561155"
        ],
        "location": "H- 56, R- 9/B, Sector: 5, Uttara",
        "Division": "Dhaka",
        "District": "Dhaka",
        "City": "Uttara",
        "image": ""
    },
    {
        "id": 111,
        "title": "Dr. Motahar Hossain",
        "contact": [
            "01711541070",
            "01971541070"
        ],
        "location": "Gulshan 2 Dcc Market, 2nd floor",
        "hours": "10/11 to 2pm",
        "services": [
            "House calls"
        ],
        "Division": "Dhaka",
        "District": "Dhaka",
        "City": "Gulshan-2",
        "image": ""
    },
    {
        "id": 112,
        "title": "Veterinary Diagnostic Centre, Mymensingh",
        "contact": "01750-535109",
        "location": "29/2, C.K Ghosh Road, Trishal Bus Stand (Behind the Hatti ma tim tim), Mymensingh, Bangladesh",
        "email": "vdc.myn@gmail.com",
        "hours": "Open 10AM – 8PM",
        "Division": "Mymensingh",
        "District": "Mymensingh",
        "City": "",
        "image": ""
    },
    {
        "id": 113,
        "title": "Bd Pet.Care",
        "contact": "01713267313",
        "location": "Ka-54/3, 1229 Bashundhara Rd, Dhaka 1229",
        "map_link": "https://goo.gl/maps/Jfwej59eTrr3bZ4o8",
        "Division": "Dhaka",
        "District": "Dhaka",
        "City": "Bashundhara R/A",
        "image": ""
    },
    {
        "id": 114,
        "title": "SP Vet Care Limited",
        "contact": "023429830440",
        "location": "382, H/3 E Nakhalpara Rd, Dhaka 1215",
        "map_link": "https://goo.gl/maps/iW2yZdjhSzLBwoYu6",
        "Division": "Dhaka",
        "District": "Dhaka",
        "City": "Mohakhali",
        "image": ""
    },
    {
        "id": 115,
        "title": "Chittagong Veterinary and Animal Science University",
        "location": "Zakir Hossain Road, Khulshi, Chittagong-4202",
        "contact": [
            "88-031-659153",
            "88-031-659154",
            "88-031-659093"
        ],
        "Division": "Chattogram",
        "District": "Chattogram",
        "City": "",
        "image": ""
    },
    {
        "id": 116,
        "title": "Dr. Imran Pet Care Centre",
        "contact": "01849583864",
        "location": "Ga-95 Gulshan Badda Link Rd, Dhaka 1212",
        "map_link": "https://goo.gl/maps/Eg3ShUJL91c4Huxv6",
        "Division": "Dhaka",
        "District": "Dhaka",
        "City": "Badda",
        "image": ""
    },
    {
        "id": 117,
        "title": "Dr. Monowar Sayeed",
        "contact": "01736930901 (Pallab)",
        "Division": "Dhaka",
        "District": "Dhaka",
        "City": "Mirpur",
        "image": ""
    },
    {
        "id": 118,
        "title": "Vet Abdullah Mujahid",
        "contact": "01715728760",
        "location": "68, Harirampur, Golartek Mosque Rd, Dhaka 1216",
        "map_link": "https://goo.gl/maps/Rtp2deSehvvNXpJE9",
        "Division": "Dhaka",
        "District": "Dhaka",
        "City": "Mirpur",
        "image": ""
    },
    {
        "id": 119,
        "title": "Pet Care",
        "contact": "01819263621",
        "location": "S Paikpara Rd, Dhaka",
        "map_link": "https://goo.gl/maps/4y9TfNqBSs4Ka1B67",
        "Division": "Dhaka",
        "District": "Dhaka",
        "City": "Mirpur",
        "image": ""
    },
    {
        "id": 120,
        "title": "Sylhet pet clinic",
        "location": "House no-05 (First Floor), Road 24, Block D, Shahjalal Uposhahar, Sylhet",
        "contact": "01776214373",
        "email": "sylhetpetclinik@gmail.com",
        "Division": "Sylhet",
        "District": "Sylhet",
        "City": "",
        "image": ""
    },
    {
        "id": 121,
        "title": "Mirpur Pet Animal Clinic",
        "contact": "01320823299",
        "location": "House-04 (Ground Floor), Road-01, Mirpur 12, Dhaka",
        "map_link": "https://g.page/mirpur-pet-animal-clinic?share",
        "Division": "Dhaka",
        "District": "Dhaka",
        "City": "Mirpur",
        "image": ""
    },
    {
        "id": 122,
        "title": "AKS Animal Care Centre",
        "contact": "01770476749",
        "location": "13/1 Road No. 12, Dhaka 1212",
        "map_link": "https://goo.gl/maps/ZKcLmbqy4BK93ise9",
        "Division": "Dhaka",
        "District": "Dhaka",
        "City": "Baridhara",
        "image": ""
    },
    {
        "id": 123,
        "title": "Companion Care Clinic",
        "contact": "01774398004",
        "location": "GP,E-124,School road,Wireless gate, Dhaka 1212",
        "map_link": "https://goo.gl/maps/jnAydYkXZv3AxJPYA",
        "Division": "Dhaka",
        "District": "Dhaka",
        "City": "Banglamotor",
        "image": ""
    },
    {
        "id": 124,
        "title": "Dr. Mahbub",
        "contact": "01711287533",
        "Division": "Sylhet",
        "District": "Sylhet",
        "City": "",
        "image": ""
    },
    {
        "id": 125,
        "title": "Biswas Veterinary Clinic",
        "contact": "01322581020",
        "location": "TA – 131, 109 Gulshan Badda Link Rd, Dhaka 1212",
        "map_link": "https://goo.gl/maps/9Mzmb6z8Dnf9YmEn9",
        "Division": "Dhaka",
        "District": "Dhaka",
        "City": "Badda",
        "image": ""
    },
    {
        "id": 126,
        "title": "Bd Pet.Care",
        "contact": "01713267313",
        "location": "Ka-54/3, 1229 Bashundhara Rd, Dhaka 1229",
        "map_link": "https://goo.gl/maps/Jfwej59eTrr3bZ4o8",
        "Division": "Dhaka",
        "District": "Dhaka",
        "City": "Bashundhara R/A",
        "image": ""
    },
    {
        "id": 127,
        "title": "Dr. Mohammad Mamunur Rashid",
        "position": "Veterinary Surgeon, DVM, MS in Theriogenology",
        "contact": "01725808534",
        "location": "Central Veterinary Hospital, 48, Kazi Alauddin Road, Dhaka-1000",
        "map_link": "https://goo.gl/maps/zmCpCY2wtkSZifVY7",
        "services": [
            "Pet animal Treatment",
            "Management",
            "Vaccination",
            "Surgical Procedure",
            "Ovario-hysterectomy",
            "Castration",
            "Docking",
            "Cesarean section",
            "Routine health checkup",
            "Emergency care"
        ],
        "Division": "Dhaka",
        "District": "Dhaka",
        "City": "Dhanmondi",
        "image": ""
    },
    {
        "id": 128,
        "title": "Dr. Arifur Rabbi",
        "position": "Veterinary Surgeon, DVM, MS",
        "contact": "01785636036",
        "email": "veterinarybd@hotmail.com",
        "location": "The Pet Vet BD, TA 173/2 Lake view road, Godara ghat to Hatirjheel Road, Dhaka 1212",
        "map_link": "https://g.page/the-pet-vet-bd?share",
        "services": [
            "Pet Animal Disease Diagnosis & Treatment",
            "Pet Animal Vaccination",
            "Dog & Cat Vaccine",
            "Pet Animal Deworming",
            "Dog & Cat Routine Deworming",
            "Pet Animal Health Checkup",
            "Dog & Cat Health Checkup"
        ],
        "Division": "Dhaka",
        "District": "Dhaka",
        "City": "Badda",
        "image": ""
    },
    {
        "id": 129,
        "title": "Dr. Sagir Uddin Ahmed",
        "position": "Veterinary Surgeon, DVM, MS Vet Science, PhD",
        "contact": [
            "01912251312",
            "01752987436",
            "01706214759"
        ],
        "email": "bdvet.com@gmail.com",
        "location": "Dhanmondi Chamber/Clinic: House 3/2, Block D, Lalmatia Dhaka 1207, Bangladesh; Gulshan Chamber/Clinic: House # 21, Road # 6, Block # D, Niketon, Gulshan 1, Dhaka",
        "map_link": "https://g.page/VetDr-Sagir?share",
        "services": [
            "Preventative health care",
            "Diagnostic and medical care of sick pets",
            "Vaccination"
        ],
        "Division": "Dhaka",
        "District": "Dhaka",
        "City": "Lalmatia",
        "image": ""
    },
    {
        "id": 130,
        "title": "Dr. Md. Mahbubul Alam Bhuiyan",
        "position": "Veterinary Surgeon",
        "contact": "01711146012",
        "location": "Central Veterinary Hospital, Chamber Address: 67/2, North Bashaboo, Khilgaon, Dhaka.",
        "map_link": "https://goo.gl/maps/zmCpCY2wtkSZifVY7",
        "Division": "Dhaka",
        "District": "Dhaka",
        "City": "Bashabo",
        "image": ""
    },
    {
        "id": 131,
        "title": "Dr. Mohammad Shariful Haque",
        "position": "Veterinary Surgeon",
        "contact": [
            "0173046585"
        ],
        "location": "Elephant Road, Dhaka, Bangladesh",
        "services": [
            "Regular Health Check up",
            "Vaccination",
            "Surgical Operation",
            "NOC",
            "Microchip"
        ],
        "Division": "Dhaka",
        "District": "Dhaka",
        "City": "Elephant Road",
        "image": ""
    },
    {
        "id": 132,
        "title": "Online Pet Clinic Gulshan",
        "contact": "01701022274",
        "location": "QCR5+X89, Dhaka 1212",
        "map_link": "https://goo.gl/maps/xBFDiz4kpwj7vSaP7",
        "Division": "Dhaka",
        "District": "Dhaka",
        "City": "Gulshan-2",
        "image": ""
    },
    {
        "id": 133,
        "title": "Veterinary Clinic",
        "contact": "01715016218",
        "location": "House 792, Road 21, Block G, Dhaka 1229",
        "map_link": "https://goo.gl/maps/xQFsseu1Y672WVfq9",
        "Division": "Dhaka",
        "District": "Dhaka",
        "City": "Bashundhara R/A",
        "image": ""
    },
    {
        "id": 134,
        "title": "Central Veterinary Hospital",
        "contact": "01711187477",
        "location": "48 Kazi Alauddin Rd, Dhaka 1000",
        "map_link": "https://goo.gl/maps/zmCpCY2wtkSZifVY7",
        "Division": "Dhaka",
        "District": "Dhaka",
        "City": "Puran Dhaka",
        "image": ""
    },
    {
        "id": 135,
        "title": "Mr. Vet",
        "contact": "01723649754",
        "location": "28, Block-C, 10, Tajmahal Rd, Dhaka 1207",
        "map_link": "https://goo.gl/maps/T7AXvHj4G5w9Z7Ku6",
        "Division": "Dhaka",
        "District": "Dhaka",
        "City": "Dhanmondi",
        "image": ""
    },
    {
        "id": 136,
        "title": "Vet & Pet Care (VNPC)",
        "contact": "01674173844",
        "location": "1/17 Humayun Road, Rashida Villa, Humayun Rd, Dhaka 1207",
        "map_link": "https://goo.gl/maps/AzeVJ6uwyWXff2xs6",
        "Division": "Dhaka",
        "District": "Dhaka",
        "City": "Dhanmondi",
        "image": ""
    },
    {
        "id": 137,
        "title": "Pet Doctor Robi",
        "contact": "01723649754",
        "location": "10, 28 Block- C Tajmahal Rd, Dhaka",
        "map_link": "https://goo.gl/maps/epBDjdX1R8v1Pm1i6",
        "Division": "Dhaka",
        "District": "Dhaka",
        "City": "Dhanmondi",
        "image": ""
    },
    {
        "id": 138,
        "title": "Care & Cure Veterinary Clinic",
        "contact": "01551807384",
        "location": "28 Rd No. 7, Dhaka 1205",
        "map_link": "https://g.page/care-cure-veterinary-clinic?share",
        "Division": "Dhaka",
        "District": "Dhaka",
        "City": "Dhanmondi",
        "image": ""
    },
    {
        "id": 139,
        "title": "Vet And Pet Care",
        "contact": "01701022274",
        "location": "Middle Badda(Baluchar), Ground Floor, Ta- 169 Badda High School Road, Gulshan 1, Dhaka 1212 Dhaka, 1212",
        "map_link": "https://goo.gl/maps/AzeVJ6uwyWXff2xs6",
        "Division": "Dhaka",
        "District": "Dhaka",
        "City": "Badda",
        "image": ""
    },
    {
        "id": 140,
        "title": "Dr. Tayaburs Pet Care",
        "contact": "01818417804",
        "location": "House 20 Road No 1A, Dhaka 1230",
        "map_link": "https://g.page/Pet-vet-care-uttara?share",
        "Division": "Dhaka",
        "District": "Dhaka",
        "City": "Uttara",
        "image": ""
    },
    {
        "id": 141,
        "title": "Evergreen Pet Care",
        "contact": "01716535822",
        "location": "H#53, R#12, Sec#13, Dhaka 1230",
        "map_link": "https://goo.gl/maps/tPUWBHoPmEWQBrUM6",
        "Division": "Dhaka",
        "District": "Dhaka",
        "City": "Uttara",
        "image": ""
    }
]